[{
    "category": "",
    "iata": "BOM",
    "airport": "Chhatrapati Shivaji International Airport",
    "city": "Mumbai",
    "country": "India",
    "country_code": "IN",
    "latitude": "19.089891",
    "longitude": "72.868047",
    "rank": 3220126,
    "timezone": "Asia/Kolkata",
    "timezone_shortname": "IST",
    "timezone_offset": "+05:30",
    "timezone_display": "IST_+05:30",
    "label": "Mumbai, IN - Chhatrapati Shivaji International Airport (BOM)",
    "value": "Mumbai (BOM)"
  }, {
    "category": "",
    "iata": "DEL",
    "airport": "Indira Gandhi International Airport",
    "city": "Delhi",
    "country": "India",
    "country_code": "IN",
    "latitude": "28.556555",
    "longitude": "77.100789",
    "rank": 3689523,
    "timezone": "Asia/Kolkata",
    "timezone_shortname": "IST",
    "timezone_offset": "+05:30",
    "timezone_display": "IST_+05:30",
    "label": "Delhi, IN - Indira Gandhi International Airport (DEL)",
    "value": "Delhi (DEL)"
  },
  {
    "category": "",
    "iata": "CCU",
    "airport": "Netaji Subhas Chandra Bose Airport",
    "city": "Kolkata",
    "country": "India",
    "country_code": "IN",
    "latitude": "22.645310",
    "longitude": "88.439306",
    "rank": 967471,
    "timezone": "Asia/Kolkata",
    "timezone_shortname": "IST",
    "timezone_offset": "+05:30",
    "timezone_display": "IST_+05:30",
    "label": "Kolkata, IN - Netaji Subhas Chandra Bose Airport (CCU)",
    "value": "Kolkata (CCU)"
  },
  {
    "category": "",
    "iata": "LAS",
    "airport": "McCarran International Airport",
    "city": "Las Vegas",
    "country": "United States",
    "country_code": "US",
    "latitude": "36.081000",
    "longitude": "-115.147599",
    "rank": 3687163,
    "timezone": "America/Los_Angeles",
    "timezone_shortname": "PST",
    "timezone_offset": "-08:00",
    "timezone_display": "PST_-08:00",
    "label": "Las Vegas, US - McCarran International Airport (LAS)",
    "value": "Las Vegas (LAS)"
  },
  {
    "category": "",
    "iata": "DXB",
    "airport": "Dubai Airport",
    "city": "Dubai",
    "country": "United Arab Emirates",
    "country_code": "AE",
    "latitude": "25.248664",
    "longitude": "55.352916",
    "rank": 6300622,
    "timezone": "Asia/Dubai",
    "timezone_shortname": "GST",
    "timezone_offset": "+04:00",
    "timezone_display": "GST_+04:00",
    "label": "Dubai, AE - Dubai Airport (DXB)",
    "value": "Dubai (DXB)"
  },
  {
    "category": "",
    "iata": "LHR",
    "airport": "London Heathrow Airport",
    "city": "London",
    "country": "United Kingdom",
    "country_code": "UK",
    "latitude": "51.469603",
    "longitude": "-0.453566",
    "rank": 6136739,
    "timezone": "Europe/London",
    "timezone_shortname": "GMT",
    "timezone_offset": "+00:00",
    "timezone_display": "GMT_+00:00",
    "label": "London, GB - London Heathrow Airport (LHR)",
    "value": "London (LHR)"
  }
]
